[
  {
    "Name": "山東開心小館",
    "Add": "424台中市和平區東關路一段營前巷16號",
    "Tel": "886-4-25951716",
    "Opentime": "星期一-星期日 上午11:00-下午08:00",
    "lon": 120.989812,
    "lat": 24.18681,
    "consume": "美食"
  },
  {
    "Name": "鼎川客家小吃",
    "Add": "42444台中市和平區東關路一段192-1號統一渡假村旁",
    "Tel": "886-4-25950189",
    "Opentime": "星期一-星期日 上午10:30-下午03:00下午05:00-下午09:00",
    "lon": 121.001576,
    "lat": 24.201544,
    "consume": "美食"
  },
  {
    "Name": "李記小館",
    "Add": "424台灣台中市和平區東關路一段128號",
    "Tel": "886-4-25950395",
    "Opentime": "請洽商家查詢",
    "lon": 121.004941,
    "lat": 24.203277,
    "consume": "美食"
  },
  {
    "Name": "山江餐飲店",
    "Add": "424台灣台中市和平區東關路一段137號",
    "Tel": "886-4-25951667",
    "Opentime": "星期一-星期日 上午10:00-下午11:00",
    "lon": 121.00506,
    "lat": 24.202946,
    "consume": "美食"
  },
  {
    "Name": "山景餐廳",
    "Add": "424臺中市和平區博愛里東關路一段402號",
    "Tel": "886-4-25943788",
    "Opentime": "請洽商家查詢",
    "lon": 120.958721,
    "lat": 24.169698,
    "consume": "美食"
  },
  {
    "Name": "伊豆美食會館",
    "Add": "424台中市和平區東關路一段分校巷5號",
    "Tel": "886-4-25950315",
    "Opentime": "請洽商家查詢",
    "lon": 121.008371,
    "lat": 24.202123,
    "consume": "美食"
  },
  {
    "Name": "仁友平價小館",
    "Add": "424台中市和平區中正路67號",
    "Tel": "886-4-25980568",
    "Opentime": "星期一-星期日 上午11:00-下午08:00",
    "lon": 121.255354,
    "lat": 24.25458,
    "consume": "美食"
  },
  {
    "Name": "福壽山農場",
    "Add": "424臺中市和平區梨山里福壽路29號",
    "Tel": "886-4-25989202",
    "Opentime": "請洽店家查詢",
    "lon": 121.245765,
    "lat": 24.245033,
    "consume": "美食"
  },
  {
    "Name": "大福餐廳",
    "Add": "424台灣台中市和平區中正路62號2樓",
    "Tel": "886-4-25989696",
    "Opentime": "請洽商家查詢",
    "lon": 121.255684,
    "lat": 24.254726,
    "consume": "美食"
  },
  {
    "Name": "羅家小館",
    "Add": "424臺中市和平區東關路一段149-2號",
    "Tel": "886-4-25950230",
    "Opentime": "請洽商家查詢",
    "lon": 121.003242,
    "lat": 24.20276,
    "consume": "美食"
  },
  {
    "Name": "新川生鱘龍魚餐飲店",
    "Add": "424台灣台中市和平區東關路一段137之1號",
    "Tel": "886-4-25951465",
    "Opentime": "星期一-星期日 上午09:00-下午10:00星期三公休",
    "lon": 121.005032,
    "lat": 24.202974,
    "consume": "美食"
  },
  {
    "Name": "英英餐廳",
    "Add": "424台中市和平區東關路一段202號",
    "Tel": "886-4-25951351",
    "Opentime": "請洽商家查詢",
    "lon": 120.999803,
    "lat": 24.198304,
    "consume": "美食"
  },
  {
    "Name": "PAPAMIA義式廚房",
    "Add": "臺中市407西屯區東興路三段412-1號",
    "Tel": "886-4-23286034",
    "Opentime": "AM11:30 - PM14:00 / PM17:30 - PM22:00",
    "lon": 120.65584,
    "lat": 24.15849,
    "consume": "美食"
  },
  {
    "Name": "春水堂-大墩店",
    "Add": "臺中市403西區大墩十九街9號",
    "Tel": "886-4-23273647",
    "Opentime": "平假日：AM8:30 – PM23:30",
    "lon": 120.65585,
    "lat": 24.15615,
    "consume": "drink"
  },
  {
    "Name": "南瓜屋義式餐飲",
    "Add": "臺中市403西區五權西四街108號",
    "Tel": "886-4-23728456",
    "Opentime": "平日 11:00-15:30;17:00-22:20,假日 11:00-15:30;17:00-22:20",
    "lon": 120.66245,
    "lat": 24.13592,
    "consume": "美食"
  },
  {
    "Name": "鄉村鵝廚房美式餐廳",
    "Add": "臺中市403西區存中街19號",
    "Tel": "886-4-23731558",
    "Opentime": "AM11:30 - PM14:30 / PM17:30 - PM22:30",
    "lon": 120.66074,
    "lat": 24.14109,
    "consume": "美食"
  },
  {
    "Name": "聖華宮素菜餐廳-大雅店",
    "Add": "臺中市404北區大雅路555號",
    "Tel": "886-4-22955298",
    "Opentime": "午11:30-14:00  晚17:30-21:00",
    "lon": 120.67172,
    "lat": 24.17143,
    "consume": "美食"
  },
  {
    "Name": "黃記鵝肉",
    "Add": "臺中市400中區大誠街43號",
    "Tel": "886-4-23174112",
    "Opentime": "16：00pm～01：00am  星期二公休",
    "lon": 120.67873,
    "lat": 24.14527,
    "consume": "美食"
  },
  {
    "Name": "赤鬼炙燒牛排-崇德店",
    "Add": "臺中市406北屯區文心路四段603號",
    "Tel": "886-4-22429933",
    "Opentime": "AM11:00 ~ PM11:30",
    "lon": 120.68522,
    "lat": 24.17241,
    "consume": "美食"
  },
  {
    "Name": "炭火燒肉工房",
    "Add": "臺中市403西區美村路一段412號",
    "Tel": "886-4-23762988",
    "Opentime": "詳見官網或電話洽詢",
    "lon": 120.66159,
    "lat": 24.14362,
    "consume": "美食"
  },
  {
    "Name": "烤狀猿日式炭火燒肉-一中店",
    "Add": "臺中市404北區太平路8-1號",
    "Tel": "886-4-22257858",
    "Opentime": "平日：上午11:30 至 凌晨 1:00 假日：上午11:00 至 凌晨 1:00 (全天候供餐)",
    "lon": 120.68611,
    "lat": 24.14765,
    "consume": "美食"
  },
  {
    "Name": "泰炘泰式料理",
    "Add": "臺中市403西區公正路242-1號",
    "Tel": "886-4-23190424",
    "Opentime": "詳見官網或電話洽詢",
    "lon": 120.65862,
    "lat": 24.14911,
    "consume": "美食"
  },
  {
    "Name": "台中金典酒店 歐廷地中海料理",
    "Add": "臺中市403西區健行路1049號",
    "Tel": "886-4-24255678",
    "Opentime": "am11:30~pm14:30 / pm18:00~23:00",
    "lon": 120.66317,
    "lat": 24.15597,
    "consume": "美食"
  },
  {
    "Name": "新天地餐飲集團-崇德旗艦店",
    "Add": "臺中市406北屯區崇德五路345號（崇德路與崇德五路口）",
    "Tel": "886-4-22438222",
    "Opentime": "am11：30~pm14：30 / pm17：30~pm21：00",
    "lon": 120.68414,
    "lat": 24.17912,
    "consume": "美食"
  },
  {
    "Name": "京華煙雲",
    "Add": "臺中市403西區五權七街57號",
    "Tel": "886-4-23725066",
    "Opentime": "10:00 am～15:00 pm、17:30 pm～22:00 pm",
    "lon": 120.66321,
    "lat": 24.13506,
    "consume": "美食"
  },
  {
    "Name": "八分飽",
    "Add": "臺中市403西區模範街9巷37號",
    "Tel": "886-4-23052584",
    "Opentime": "午餐１１：３０～１４：３０　晚餐１７：００～２１：００  週一店休（國定假日除外）",
    "lon": 120.66546,
    "lat": 24.14784,
    "consume": "美食"
  },
  {
    "Name": "新天地餐飲集團-東區店",
    "Add": "臺中市401東區旱溪東路一段456號",
    "Tel": "886-4-22136222",
    "Opentime": "11：00 - 21：00",
    "lon": 120.70146,
    "lat": 24.14198,
    "consume": "美食"
  },
  {
    "Name": "春天素食餐廳",
    "Add": "臺中市407西屯區大墩十七街88號2樓",
    "Tel": "886-4-23280956",
    "Opentime": "午餐：11:45~14:00 / 下午茶：14:30~16:30 / 晚餐：17:45~21:00",
    "lon": 120.64816,
    "lat": 24.15575,
    "consume": "美食"
  },
  {
    "Name": "春水堂-豐樂店",
    "Add": "臺中市408南屯區文心南五路321號之13號",
    "Tel": "886-4-24718005",
    "Opentime": "AM08：30 - PM23：00",
    "lon": 120.64459,
    "lat": 24.13195,
    "consume": "美食"
  },
  {
    "Name": "瑪露連嫩仙草總店",
    "Add": "臺中市400中區臺灣大道一段255號",
    "Tel": "886-4-22288359",
    "Opentime": "10：00am～21：00pm",
    "lon": 120.66244,
    "lat": 24.14989,
    "consume": "snack"
  },
  {
    "Name": "幸發亭蜜豆冰 - 健行店",
    "Add": "臺中市404北區健行路465號",
    "Tel": "886-4-22071578",
    "Opentime": "AM11：00 - PM23：00",
    "lon": 120.67847,
    "lat": 24.159,
    "consume": "snack"
  },
  {
    "Name": "東東芋圓",
    "Add": "臺中市406北屯區東山路二段48-3號",
    "Tel": "886-4-22396349",
    "Opentime": "am10:00~pm22:00",
    "lon": 120.74107,
    "lat": 24.17981,
    "consume": "cafe"
  },
  {
    "Name": "蘭莊法式蔬食咖啡館",
    "Add": "臺中市406北屯區東山路二段51-35號",
    "Tel": "886-4-22410077",
    "Opentime": "AM11：00～PM14：00 PM17：00～PM21：00",
    "lon": 120.74179,
    "lat": 24.18077,
    "consume": "drink"
  },
  {
    "Name": "春水堂-四維店",
    "Add": "臺中市403西區四維街30號",
    "Tel": "886-4-22297991",
    "Opentime": "平假日：AM08:00 – PM22:00",
    "lon": 120.67574,
    "lat": 24.13771,
    "consume": "美食"
  },
  {
    "Name": "咕嚕咕嚕原住民音樂餐廳",
    "Add": "臺中市403西區五權西四街13巷2號",
    "Tel": "886-4-23783128",
    "Opentime": "am11:00~pm11:00",
    "lon": 120.6625,
    "lat": 24.13903,
    "consume": "美食"
  },
  {
    "Name": "竹之鄉風味餐廳",
    "Add": "臺中市406北屯區東山路二246-1",
    "Tel": "886-4-24390558",
    "Opentime": "10：30am～20：00pm",
    "lon": 120.73945,
    "lat": 24.17856,
    "consume": "美食"
  },
  {
    "Name": "谷明土雞城",
    "Add": "臺中市406北屯區大坑里光西巷227號",
    "Tel": "886-4-22391803",
    "Opentime": "11:00-21:00",
    "lon": 120.75345,
    "lat": 24.20225,
    "consume": "美食"
  },
  {
    "Name": "龍之居土雞城",
    "Add": "臺中市406北屯區東山路二段126號",
    "Tel": "886-4-22394619",
    "Opentime": "am11：00~pm22：00",
    "lon": 120.77095,
    "lat": 24.19917,
    "consume": "美食"
  },
  {
    "Name": "安可喬治龍蝦螃蟹美式海鮮餐廳",
    "Add": "臺中市408南屯區大業路492號",
    "Tel": "886-4-22516130",
    "Opentime": "詳見官網或電話洽詢",
    "lon": 120.63947,
    "lat": 24.15389,
    "consume": "美食"
  },
  {
    "Name": "春水堂-中科永福店",
    "Add": "臺中市407西屯區永福路141號",
    "Tel": "886-4-24618651",
    "Opentime": "AM10:30 - PM23:00",
    "lon": 120.62101,
    "lat": 24.18508,
    "consume": "drink"
  },
  {
    "Name": "艾凡里咖啡美食",
    "Add": "臺中市434龍井區藝術街33號",
    "Tel": "886-4-26310836",
    "Opentime": "詳見官網或電話洽詢",
    "lon": 120.5943,
    "lat": 24.18766,
    "consume": "美食"
  },
  {
    "Name": "野宴日式碳火燒烤-沙鹿店",
    "Add": "臺中市433沙鹿區光大路147號",
    "Tel": "886-4-26625309",
    "Opentime": "午餐 11:00-17:00 晚餐 17:00-21:30 宵夜 21:30-01:00(宵夜場限週一至週四晚上21:30後)",
    "lon": 120.56533,
    "lat": 24.2433,
    "consume": "美食"
  },
  {
    "Name": "狀元仙草舖-東興店",
    "Add": "臺中市408南屯區東興路二段350號",
    "Tel": "886-4-24738842",
    "Opentime": "12:00am-22:00pm",
    "lon": 120.65323,
    "lat": 24.1447,
    "consume": "snack"
  },
  {
    "Name": "幸發亭蜜豆冰 - 北平店",
    "Add": "臺中市404北區北平路2段98-2號",
    "Tel": "886-4-22935339",
    "Opentime": "11:00~23:00",
    "lon": 120.67519,
    "lat": 24.17144,
    "consume": "snack"
  },
  {
    "Name": "泰妃苑泰式料理",
    "Add": "臺中市407西屯區西屯路三段166號之46號",
    "Tel": "886-4-23142191",
    "Opentime": "11:30 -14:30/17:00 - 22:00",
    "lon": 120.6558,
    "lat": 24.16426,
    "consume": "美食"
  },
  {
    "Name": "碧綠素食餐飲有機園",
    "Add": "臺中市407西屯區中工三路184號",
    "Tel": "886-4-23586703",
    "Opentime": "詳見官網或電話洽詢",
    "lon": 120.61788,
    "lat": 24.17674,
    "consume": "美食"
  },
  {
    "Name": "素樂活廚房",
    "Add": "臺中市407西屯區漢口路二段121號",
    "Tel": "886-4-23150898",
    "Opentime": "詳見官網或電話洽詢",
    "lon": 120.66114,
    "lat": 24.16503,
    "consume": "美食"
  },
  {
    "Name": "寬心園-文心公益店",
    "Add": "臺中市408南屯區文心路一段435號(公益路上近文心路口)",
    "Tel": "886-4-22516182",
    "Opentime": "am11:30- pm09:30",
    "lon": 120.6465,
    "lat": 24.15066,
    "consume": "美食"
  },
  {
    "Name": "禾野酵素生活館",
    "Add": "臺中市407西屯區四川路18號",
    "Tel": "886-8-00362288",
    "Opentime": "詳見官網或電話洽詢",
    "lon": 120.68714,
    "lat": 24.17177,
    "consume": "美食"
  },
  {
    "Name": "赤鬼炙燒牛排-台灣大道店",
    "Add": "臺中市403西區臺灣大道二段170號",
    "Tel": "886-4-23205157",
    "Opentime": "AM11:00 ~ PM11:30",
    "lon": 120.67023,
    "lat": 24.15085,
    "consume": "美食"
  },
  {
    "Name": "又見一炊煙",
    "Add": "臺中市426新社區中興嶺街一段107號",
    "Tel": "886-4-25823567",
    "Opentime": "PM11:30-PM21:30",
    "lon": 120.7861,
    "lat": 24.20856,
    "consume": "美食"
  },
  {
    "Name": "中非咖啡",
    "Add": "臺中市403西區四維街46號",
    "Tel": "886-4-22264361",
    "Opentime": "08:00-22:30",
    "lon": 120.67478,
    "lat": 24.13852,
    "consume": "cafe"
  },
  {
    "Name": "2派克脆皮雞排-東海直營店",
    "Add": "臺中市434龍井區新興路76號",
    "Tel": "886-4-26526212",
    "Opentime": "pm14:00~pm24:00(一~六) / pm14:00~pm23:30(日)",
    "lon": 120.58613,
    "lat": 24.18168,
    "consume": "美食"
  },
  {
    "Name": "春水堂-國際店",
    "Add": "臺中市434龍井區藝術街48號",
    "Tel": "886-4-26528288",
    "Opentime": "平假日：AM10:30 – PM23:00",
    "lon": 120.59394,
    "lat": 24.18778,
    "consume": "drink"
  },
  {
    "Name": "2派克脆皮雞排-台中黎明店",
    "Add": "臺中市408南屯區永定里黎明路2段56號",
    "Tel": "886-4-23850200",
    "Opentime": "pm14:00~pm24:00",
    "lon": 120.6374,
    "lat": 24.1441,
    "consume": "美食"
  },
  {
    "Name": "印月創意東方宴",
    "Add": "臺中市408南屯區公益路二段818號",
    "Tel": "886-4-22511155",
    "Opentime": "星期一~星期日 AM 11：30 ~ PM 09：30",
    "lon": 120.62851,
    "lat": 24.15164,
    "consume": "美食"
  },
  {
    "Name": "木匠租車烤肉休閒廣場",
    "Add": "臺中市420豐原區國豐路三段145巷41弄36號",
    "Tel": "886-4-25297706",
    "Opentime": "平日AM8:00~PM6:30  假日AM7:00~PM7:00",
    "lon": 120.74207,
    "lat": 24.27125,
    "consume": "美食"
  },
  {
    "Name": "潮港城海鮮樓",
    "Add": "臺中市437大甲區中山路一段876號",
    "Tel": "886-4-26872070",
    "Opentime": "詳見官網或電話洽詢",
    "lon": 120.62775,
    "lat": 24.34789,
    "consume": "美食"
  },
  {
    "Name": "震樺百菇美食特產",
    "Add": "臺中市426新社區協中街169號",
    "Tel": "886-4-25815988",
    "Opentime": "詳見官網或電話洽詢",
    "lon": 120.80855,
    "lat": 24.19239,
    "consume": "美食"
  },
  {
    "Name": "新天地餐飲集團-梧棲創始店",
    "Add": "臺中市435梧棲區大智路二段400號",
    "Tel": "886-4-26562222",
    "Opentime": "am11：30~pm21：00",
    "lon": 120.53294,
    "lat": 24.26033,
    "consume": "美食"
  },
  {
    "Name": "富鼎旺豬腳",
    "Add": "臺中市400中區臺灣大道一段560號",
    "Tel": "886-4-22253188",
    "Opentime": "am11:00-pm08:30",
    "lon": 120.67655,
    "lat": 24.14528,
    "consume": "美食"
  },
  {
    "Name": "臺中金典酒店",
    "Add": "臺中市403西區健行路1049號",
    "Tel": "886-4-23288000",
    "Opentime": "Check in 15：00、Check out 12：00",
    "lon": 120.66317,
    "lat": 24.15597,
    "consume": "美食"
  },
  {
    "Name": "潭子臭豆腐",
    "Add": "臺中市400中區中華路與民族路交叉口",
    "Tel": "886-4-22270572",
    "Opentime": "pm5:00~am3:00",
    "lon": 120.67636,
    "lat": 24.14466,
    "consume": "美食"
  },
  {
    "Name": "四十年老店雞蛋蚵仔煎",
    "Add": "臺中市400中區中華路一段197號",
    "Tel": "886-4-22273193",
    "Opentime": "pm5:00~am1:30",
    "lon": 120.67759,
    "lat": 24.14624,
    "consume": "美食"
  },
  {
    "Name": "50年代台北蚵仔麵線",
    "Add": "臺中市400中區中華路一段199號",
    "Tel": "886-4-22289111",
    "Opentime": "am10:00-pm22:00",
    "lon": 120.67753,
    "lat": 24.14628,
    "consume": "美食"
  },
  {
    "Name": "正老牌麵線糊",
    "Add": "臺中市402南區合作街 70-2號",
    "Tel": "886-4-22879468",
    "Opentime": "pm3:00~am1:00",
    "lon": 120.68139,
    "lat": 24.12966,
    "consume": "美食"
  },
  {
    "Name": "一中豐仁冰",
    "Add": "臺中市404北區育才街3巷4號之6",
    "Tel": "886-4-22230522",
    "Opentime": "am10:00~pm10:30",
    "lon": 120.68665,
    "lat": 24.149,
    "consume": "snack"
  },
  {
    "Name": "昇和甘草芭樂",
    "Add": "臺中市404北區一中街",
    "Tel": "886-9-15699119",
    "Opentime": "pm12:00~pm11:00",
    "lon": 120.68538,
    "lat": 24.1503,
    "consume": "snack"
  },
  {
    "Name": "一家之薯",
    "Add": "臺中市407西屯區文華路永新巷南二弄58號",
    "Tel": "886-4-24526521",
    "Opentime": "詳見官網或電話洽詢",
    "lon": 120.64555,
    "lat": 24.17681,
    "consume": "美食"
  },
  {
    "Name": "一心素食臭豆腐",
    "Add": "臺中市407西屯區福星路461巷2號 (歐跑運動用品店旁)",
    "Tel": "886-4-24525389",
    "Opentime": "pm5:00~am1:00",
    "lon": 120.64544,
    "lat": 24.17796,
    "consume": "美食"
  },
  {
    "Name": "一中8兩碳烤雞排",
    "Add": "臺中市404北區一中街水利大樓廣場",
    "Tel": "886-9-23177364",
    "Opentime": "am:11:00~pm:23:30",
    "lon": 120.71116,
    "lat": 24.30263,
    "consume": "美食"
  },
  {
    "Name": "阿蒝師中東沙威瑪",
    "Add": "臺中市404北區精武路316號",
    "Tel": "886-9-37227795",
    "Opentime": "AM11:30 - PM23:00",
    "lon": 120.68405,
    "lat": 24.14652,
    "consume": "美食"
  },
  {
    "Name": "京悅港式飲茶",
    "Add": "臺中市404北區三民路三段179號A棟12樓",
    "Tel": "886-4-22233919",
    "Opentime": "週一 - 週五：11:00 - 21:30　週六 - 週日：10:30 - 21:30",
    "lon": 120.68188,
    "lat": 24.14758,
    "consume": "美食"
  },
  {
    "Name": "半月燒餡餅專賣店-一中總店",
    "Add": "臺中市404北區育才南街31號（一中二街商圈，水利大樓旁）",
    "Tel": "886-4-36080300",
    "Opentime": "１１：３０～２２：００（或賣完為止）　週一公休",
    "lon": 120.68618,
    "lat": 24.14799,
    "consume": "美食"
  },
  {
    "Name": "梨子咖啡館-豐原店",
    "Add": "臺中市420豐原區陽明街86號1樓﹝前臺中縣政府旁﹞",
    "Tel": "886-4-25276799",
    "Opentime": "AM8:00~PM22:00",
    "lon": 120.72219,
    "lat": 24.2463,
    "consume": "cafe"
  },
  {
    "Name": "梨子咖啡館-崇德店",
    "Add": "臺中市406北屯區崇德路三段1號﹝崇德路與松竹路口﹞",
    "Tel": "886-4-22490399",
    "Opentime": "AM8:00~PM22:00",
    "lon": 120.74649,
    "lat": 24.1807,
    "consume": "cafe"
  },
  {
    "Name": "春水堂-朝富店",
    "Add": "臺中市407西屯區朝馬三街12號",
    "Tel": "886-4-22549779",
    "Opentime": "平假日：AM8:30 – PM23:00",
    "lon": 120.6365,
    "lat": 24.16666,
    "consume": "cafe"
  },
  {
    "Name": "春水堂-中友店",
    "Add": "臺中市404北區三民路三段161號c棟地下二樓",
    "Tel": "886-4-22258673",
    "Opentime": "周一-周五AM11:00-PM22:00  周六-周日AM11:00-PM22:30",
    "lon": 120.68475,
    "lat": 24.15207,
    "consume": "cafe"
  },
  {
    "Name": "春水堂-三越店",
    "Add": "臺中市407西屯區臺灣大道三段301號（新光三越百貨9樓）",
    "Tel": "886-4-22546909",
    "Opentime": "平日：早上11:00 – 晚上 22:00　假日：早上10:30 – 晚上 22:00",
    "lon": 120.64707,
    "lat": 24.1645,
    "consume": "cafe"
  },
  {
    "Name": "春水堂-國美店",
    "Add": "臺中市403西區五權西路一段2號B1(數位方舟旁)",
    "Tel": "886-4-23763342",
    "Opentime": "平假日：AM11：00 ~ PM22：00(周一不休館)",
    "lon": 120.66351,
    "lat": 24.14094,
    "consume": "cafe"
  },
  {
    "Name": "春水堂-新時代店",
    "Add": "臺中市401東區復興路四段186號2F（新時代購物中心2F）",
    "Tel": "886-4-22272712",
    "Opentime": "平假日：AM09:00 – PM22:00",
    "lon": 120.68769,
    "lat": 24.13629,
    "consume": "cafe"
  },
  {
    "Name": "春水堂-育才北店",
    "Add": "臺中市404北區育才北路61號",
    "Tel": "886-4-22200339",
    "Opentime": "平假日：AM09：00 ~ PM22：30",
    "lon": 120.68445,
    "lat": 24.15299,
    "consume": "cafe"
  },
  {
    "Name": "春水堂-公益店",
    "Add": "臺中市403西區公益路68號B1樓",
    "Tel": "886-4-23261150",
    "Opentime": "平日：AM11:00 – PM22:00  假日：AM10:30 – PM22:00",
    "lon": 120.66385,
    "lat": 24.15124,
    "consume": "cafe"
  },
  {
    "Name": "Top City臺中大遠百",
    "Add": "臺中市407西屯區 臺灣大道三段251號",
    "Tel": "886-4-37022168",
    "Opentime": "週一－週五AM11:00~PM22:00  週六日AM10:30~PM22:00",
    "lon": 120.64707,
    "lat": 24.1645,
    "consume": "美食"
  },
  {
    "Name": "中友百貨",
    "Add": "臺中市404北區三民路三段161 號",
    "Tel": "886-4-22253456",
    "Opentime": "AM11:00~PM22:00",
    "lon": 120.68475,
    "lat": 24.15207,
    "consume": "美食"
  },
  {
    "Name": "老虎城",
    "Add": "臺中市407西屯區河南路三段120號",
    "Tel": "886-4-36068888",
    "Opentime": "AM11：00~PM22：00",
    "lon": 120.63813,
    "lat": 24.16408,
    "consume": "美食"
  },
  {
    "Name": "新光三越百貨公司",
    "Add": "臺中市407西屯區臺灣大道三段301號",
    "Tel": "886-4-22553333",
    "Opentime": "週一~週五 AM11:00~PM22:00  週六~週日及例假日 AM10:30~PM22:00",
    "lon": 120.64371,
    "lat": 24.16526,
    "consume": "美食"
  },
  {
    "Name": "豐原太平洋百貨",
    "Add": "臺中市420豐原區復興路2號",
    "Tel": "886-4-25291111",
    "Opentime": "週一~週五11:00~22:00 週六~週日10:30~22:00",
    "lon": 120.72076,
    "lat": 24.25098,
    "consume": "美食"
  },
  {
    "Name": "黑色古堡-法義風味人文餐廳",
    "Add": "臺中市403西區大仁街1號",
    "Tel": "886-4-23105577",
    "Opentime": "星期一～星期日：  午餐：11:30~14:30 /  晚餐：17:30~21:30",
    "lon": 120.66732,
    "lat": 24.15213,
    "consume": "美食"
  },
  {
    "Name": "橘光呼嚕貓咪主題餐廳",
    "Add": "臺中市434龍井區藝術街85號1F",
    "Tel": "886-4-26312868",
    "Opentime": "12:00~20:30 (週三公休)",
    "lon": 120.59517,
    "lat": 24.18718,
    "consume": "美食"
  },
  {
    "Name": "葵海農場",
    "Add": "臺中市437大甲區西岐里如意路31巷7號",
    "Tel": "886-4-26815925",
    "Opentime": "09:00-17:00  請事先預約",
    "lon": 120.61728,
    "lat": 24.42142,
    "consume": "美食"
  },
  {
    "Name": "琵央卡義式餐廳",
    "Add": "臺中市434龍井區藝術北街6巷6號",
    "Tel": "886-4-26323390",
    "Opentime": "11:00~22:30",
    "lon": 120.59519,
    "lat": 24.18877,
    "consume": "美食"
  },
  {
    "Name": "東勢大碗公冰店",
    "Add": "臺中市423東勢區中山路33號",
    "Tel": "886-4-25773636",
    "Opentime": "營業時間：夏季3-10月周一至周五 10點營業 假日9點至晚上9點",
    "lon": 120.83041,
    "lat": 24.25721,
    "consume": "drink"
  },
  {
    "Name": "薰衣草森林",
    "Add": "臺中市426新社區中和村中興街20號",
    "Tel": "886-4-25931066",
    "Opentime": "詳見官網或電話洽詢",
    "lon": 120.96909,
    "lat": 24.2382,
    "consume": "美食"
  },
  {
    "Name": "阿亮香菇園",
    "Add": "臺中市426新社區協成里協中街131號",
    "Tel": "886-4-25810893",
    "Opentime": "09.00-17.30",
    "lon": 120.81026,
    "lat": 24.19125,
    "consume": "美食"
  },
  {
    "Name": "心之芳庭",
    "Add": "臺中市406北屯區民政里芳庭路1號",
    "Tel": "886-4-22398900",
    "Opentime": "每週一公休、平日10：30-18：30，六日10：00-18：30",
    "lon": 120.76749,
    "lat": 24.16231,
    "consume": "美食"
  },
  {
    "Name": "阿秋廣場",
    "Add": "臺中市407西屯區臺灣大道三段752號",
    "Tel": "886-4-22512966",
    "Opentime": "詳見官網或電話洽詢",
    "lon": 120.63646,
    "lat": 24.17172,
    "consume": "美食"
  },
  {
    "Name": "阿秋大肥鵝宴會廳",
    "Add": "臺中市407西屯區西屯區黎明路三段13號",
    "Tel": "886-4-27089316",
    "Opentime": "週一-週日: 17:00 - 22:00",
    "lon": 120.63668,
    "lat": 24.17207,
    "consume": "美食"
  },
  {
    "Name": "格哆莉奶酪優禮",
    "Add": "臺中市401東區和平街34號",
    "Tel": "886-4-22203330",
    "Opentime": "上午10:00~下午07:00 (週一公休)",
    "lon": 120.68451,
    "lat": 24.13357,
    "consume": "美食"
  },
  {
    "Name": "寶熊漁樂碼頭Okuma Fishing Museum",
    "Add": "臺中市427潭子區中山路三段11號",
    "Tel": "886-4-35013338",
    "Opentime": "週二至週日：09:30~17:00，每週一為公休日。",
    "lon": 120.70603,
    "lat": 24.21989,
    "consume": "美食"
  },
  {
    "Name": "豐饡鐵板燒",
    "Add": "臺中市407西屯區朝馬路59號",
    "Tel": "886-4-22588000",
    "Opentime": "11:30 - 14:00, 17:30 - 22:00",
    "lon": 120.63637,
    "lat": 24.16883,
    "consume": "美食"
  },
  {
    "Name": "宜家家居 IKEA",
    "Add": "臺中市408南屯區向上路二段168號",
    "Tel": "886-4-27049699",
    "Opentime": "10:00-22:00",
    "lon": 120.64188,
    "lat": 24.14692,
    "consume": "美食"
  },
  {
    "Name": "窩柢咖啡公寓",
    "Add": "臺中市407西屯區杏林路27號",
    "Tel": "886-4-27086808",
    "Opentime": "週二 - 週日: 11:00 - 21:00",
    "lon": 120.64208,
    "lat": 24.1677,
    "consume": "美食"
  },
  {
    "Name": "The Prime-Grill 極炙牛排館",
    "Add": "臺中市407西屯區市政路77號24樓",
    "Tel": "886-4-37056000#73200",
    "Opentime": "午餐11:30～14:30；下午茶14:30～17:00；晚餐18:00～22:00",
    "lon": 120.64184,
    "lat": 24.15694,
    "consume": "美食"
  },
  {
    "Name": "Soluna-All Day Dining 饗樂全日餐廳",
    "Add": "臺中市407西屯區市政路77號",
    "Tel": "886-4-37056088",
    "Opentime": "早餐 （06:30 - 10:00，週末供應至10:30）；午餐 （11:30 - 14:30）；晚餐 （18:00 - 21:30）",
    "lon": 120.64184,
    "lat": 24.15694,
    "consume": "美食"
  },
  {
    "Name": "路易莎咖啡逢甲福星店",
    "Add": "臺中市407西屯區河南路二段301巷72號",
    "Tel": "886-4-24529143",
    "Opentime": "一~五AM7:00~PM10:00  六日AM7:00~PM6:00",
    "lon": 120.64834,
    "lat": 24.17197,
    "consume": "cafe"
  },
  {
    "Name": "元波肉圓",
    "Add": "臺中市414烏日區三民街161號",
    "Tel": "886-4-23372026",
    "Opentime": "週一至週日  6:30~13:30",
    "lon": 120.62223,
    "lat": 24.10752,
    "consume": "美食"
  },
  {
    "Name": "元生咖啡",
    "Add": "臺中市400中區向上路一段79巷64號",
    "Tel": "886-4-23022868",
    "Opentime": "08:00~19:00",
    "lon": 120.66403,
    "lat": 24.14519,
    "consume": "cafe"
  },
  {
    "Name": "菇神觀景複合式餐飲",
    "Add": "臺中市426新社區協成里協中街287號",
    "Tel": "886-4-25822585",
    "Opentime": "上午10點至晚上10點，例假日：上午10點至晚上10點",
    "lon": 120.80123,
    "lat": 24.19846,
    "consume": "美食"
  },
  {
    "Name": "羅布森書蟲房",
    "Add": "臺中市403西區五權西路一段257號12樓-2",
    "Tel": "886-4-23726611",
    "Opentime": "SAT.~SUN. : 13:00~18:00",
    "lon": 120.65603,
    "lat": 24.13983,
    "consume": "美食"
  },
  {
    "Name": "老舅的家鄉味",
    "Add": "臺中市401東區忠孝路282號",
    "Tel": "886-4-22233878",
    "Opentime": "全年無休 營業時間11:30-14:00 17:00-22:00",
    "lon": 120.68656,
    "lat": 24.13141,
    "consume": "美食"
  },
  {
    "Name": "串串-串燒 kusu kusu-kushi yaki",
    "Add": "臺中市420豐原區育仁路132號",
    "Tel": "886-4-25269528",
    "Opentime": "週二 - 週四: 17:00 - 23:00 週五 - 週六: 17:00 - 0:00 週日: 17:00 - 23:00",
    "lon": 120.71662,
    "lat": 24.24106,
    "consume": "美食"
  },
  {
    "Name": "屋馬燒肉料亭",
    "Add": "臺中市403西區公益路111號1樓",
    "Tel": "886-4-23013000",
    "Opentime": "11:00 ~ 00:00 週一~日",
    "lon": 120.66635,
    "lat": 24.15072,
    "consume": "美食"
  },
  {
    "Name": "紅巢燒肉工房",
    "Add": "臺中市408南屯區公益路二段836號",
    "Tel": "886-4-22590089",
    "Opentime": "本日營業時間 11:30 - 14:30, 17:00 - 22:00",
    "lon": 120.62881,
    "lat": 24.15118,
    "consume": "美食"
  },
  {
    "Name": "丰丹嚴選本舖",
    "Add": "臺中市408南屯區大業路277號",
    "Tel": "886-4-23282789",
    "Opentime": "周一~周六上午09:00~21:00",
    "lon": 120.64839,
    "lat": 24.15333,
    "consume": "美食"
  },
  {
    "Name": "饗旺食品行",
    "Add": "臺中市421后里區文明路206號",
    "Tel": "886-4-25570819",
    "Opentime": "AM8:00-PM10:00",
    "lon": 120.71614,
    "lat": 24.30685,
    "consume": "美食"
  },
  {
    "Name": "台中華美街担仔麵",
    "Add": "臺中市407西屯區華美西街二段215號",
    "Tel": "886-4-23123288",
    "Opentime": "上午10:00~14:00 下午17:00~22:00",
    "lon": 120.66545,
    "lat": 24.16786,
    "consume": "美食"
  },
  {
    "Name": "米吉米食天地",
    "Add": "臺中市420豐原區豐中路162號",
    "Tel": "886-4-25293558",
    "Opentime": "市場：上午6:30~中午12:30   門市：上午6:00~晚上8:00",
    "lon": 120.7211,
    "lat": 24.25848,
    "consume": "美食"
  },
  {
    "Name": "美洲冰品",
    "Add": "臺中市437大甲區文武路54號",
    "Tel": "886-4-26800802",
    "Opentime": "10:30-22:00",
    "lon": 120.6248,
    "lat": 24.34622,
    "consume": "drink"
  },
  {
    "Name": "裕珍馨/光明旗艦店",
    "Add": "臺中市437大甲區光明路67號",
    "Tel": "886-4-26872559",
    "Opentime": "8:30-22:00 全年無休，若有異動以公告為主",
    "lon": 120.62336,
    "lat": 24.344,
    "consume": "gift"
  },
  {
    "Name": "裕珍馨/蔣公店",
    "Add": "臺中市437大甲區臺中市大甲區蔣公路131號",
    "Tel": "886-4-26861759",
    "Opentime": "8:30-22:00 全年無休，若有異動以公告為主",
    "lon": 120.62404,
    "lat": 24.3454,
    "consume": "gift"
  },
  {
    "Name": "東勢舊火車站暨客家文化園區",
    "Add": "臺中市423東勢區廣興里中山路一號",
    "Tel": "886-4-25888634",
    "Opentime": "AM 9:00~PM 18:00",
    "lon": 120.83185,
    "lat": 24.25765,
    "consume": "美食"
  },
  {
    "Name": "Passenger 隨食。旅人",
    "Add": "臺中市403西區忠誠街109號",
    "Tel": "886-4-23103336",
    "Opentime": "11:00 - 20:30",
    "lon": 120.65928,
    "lat": 24.15238,
    "consume": "美食"
  },
  {
    "Name": "赤坂屋 日式碳烤燒肉店",
    "Add": "臺中市403西區公益路79號",
    "Tel": "886-4-23017848",
    "Opentime": "每天17:30-23:00 六日11:30-14:30 每個月第四個星期一公休",
    "lon": 120.66732,
    "lat": 24.15064,
    "consume": "美食"
  },
  {
    "Name": "R-Star Coffee",
    "Add": "臺中市403西區忠明南路101號",
    "Tel": "886-4-23268385",
    "Opentime": "週一： 9:00 到 21:00 ；週三 - 週日： 9:00 到 21:00",
    "lon": 120.65771,
    "lat": 24.15363,
    "consume": "cafe"
  },
  {
    "Name": "悅田食品--悅性食物  健康福田",
    "Add": "臺中市406北屯區軍和街227巷22弄4號",
    "Tel": "886-4-22393183",
    "Opentime": "9:00~18:00",
    "lon": 120.72051,
    "lat": 24.1778,
    "consume": "snack"
  },
  {
    "Name": "老阿太和孫女的手工小吃鋪",
    "Add": "臺中市404北區西屯路一段270號",
    "Tel": "886-4-22036668",
    "Opentime": "周一~周五 9AM-9PM 周六 10:30~9:00 週日12:00~6:00",
    "lon": 120.66852,
    "lat": 24.15647,
    "consume": "美食"
  },
  {
    "Name": "天廚傳統早點",
    "Add": "臺中市401東區自由二街92號 (近干城福利廣場)",
    "Tel": "886-4-22131615",
    "Opentime": "am0500 ~ pm1200 (隔週四店休)",
    "lon": 120.68772,
    "lat": 24.14458,
    "consume": "美食"
  },
  {
    "Name": "這一鍋 皇室秘藏鍋物",
    "Add": "臺中市407西屯區朝富路36號",
    "Tel": "886-4-36090088",
    "Opentime": "11:30AM ~ 03:00AM",
    "lon": 120.63729,
    "lat": 24.16674,
    "consume": "美食"
  },
  {
    "Name": "HUN 混",
    "Add": "臺中市404北區三民路三段114號2樓",
    "Tel": "886-4-22231080",
    "Opentime": "週一 - 週四：12:00 到 15:30；17:00 到 22:00  週五 - 週日：11:30 到 15:30；17:00 到 22:00",
    "lon": 120.68432,
    "lat": 24.1499,
    "consume": "美食"
  },
  {
    "Name": "目覺三店（mezamashikohi trio）",
    "Add": "臺中市403西區精誠七街一號",
    "Tel": "886-4-23292566",
    "Opentime": "星期一 ~ 星期日 : 09 : 00 ~ 21 : 00 ( 星期三 : 09 :00 ~ 18 : 00 )",
    "lon": 120.65622,
    "lat": 24.15515,
    "consume": "美食"
  },
  {
    "Name": "港町十三番地(雙十店)",
    "Add": "臺中市404北區雙十路223號之1",
    "Tel": "886-4-22333823",
    "Opentime": "營業時間17:00~02:00",
    "lon": 120.69012,
    "lat": 24.15597,
    "consume": "美食"
  },
  {
    "Name": "小漁兒燒酒雞",
    "Add": "臺中市403西區篤行路151號",
    "Tel": "886-4-22014800",
    "Opentime": "週一至週日 17:00~5:00",
    "lon": 120.67433,
    "lat": 24.14933,
    "consume": "美食"
  },
  {
    "Name": "MITAKA 3e CAFE",
    "Add": "臺中市433沙鹿區東晉東路731號",
    "Tel": "886-4-26318578",
    "Opentime": "週二 - 週五：17:00~0:00   週六：16:00~0:00   週日：16:00~23:00",
    "lon": 120.57951,
    "lat": 24.22133,
    "consume": "cafe"
  },
  {
    "Name": "食いしん坊",
    "Add": "臺中市402南區五權南路278巷25號",
    "Tel": "886-4-22653561",
    "Opentime": "一～日11 : 00 - 18 : 00 ( 不定期公休，若遇公休將提前於FB通知)",
    "lon": 120.67081,
    "lat": 24.12319,
    "consume": "美食"
  },
  {
    "Name": "星月大地",
    "Add": "臺中市421后里區月眉北路486號",
    "Tel": "886-4-26831671",
    "Opentime": "詳見官網或電話洽詢",
    "lon": 120.70151,
    "lat": 24.32478,
    "consume": "美食"
  },
  {
    "Name": "麗寶樂園",
    "Add": "臺中市421后里區福容路8號(臺中后里外埔交流道下)",
    "Tel": "886-4-25582459",
    "Opentime": "平日營業時間: 09:30~17:00 / 假日為 夜間營運 營業時間: 09:30~20:00",
    "lon": 120.69876,
    "lat": 24.32377,
    "consume": "美食"
  },
  {
    "Name": "玩具牧場",
    "Add": "臺中市434龍井區臺灣大道五段3巷42弄17號",
    "Tel": "886-4-26319509",
    "Opentime": "詳見官網或電話洽詢",
    "lon": 120.59202,
    "lat": 24.18226,
    "consume": "美食"
  },
  {
    "Name": "佛羅倫斯義法料理餐廳",
    "Add": "臺中市434龍井區藝術街38巷14號",
    "Tel": "886-4-26336051",
    "Opentime": "11:30–14:30, 17:00–22:00",
    "lon": 120.59428,
    "lat": 24.18813,
    "consume": "美食"
  },
  {
    "Name": "皮耶小館",
    "Add": "臺中市434龍井區遠東街121號",
    "Tel": "886-4-26310641",
    "Opentime": "11:30–15:00(供餐至14:00), 17:30–22:00(供餐至20:30)  週一公休，每月第3個星期二公休",
    "lon": 120.59344,
    "lat": 24.18976,
    "consume": "美食"
  },
  {
    "Name": "阿在筒仔米糕",
    "Add": "臺中市437大甲區蔣公路133號",
    "Tel": "886-4-26876515",
    "Opentime": "AM6:00~AM2:00",
    "lon": 120.62264,
    "lat": 24.34589,
    "consume": "美食"
  },
  {
    "Name": "三媽臭臭鍋-大甲店",
    "Add": "臺中市437大甲區五福街51號",
    "Tel": "886-4-26886879",
    "Opentime": "11:00 - 22:30",
    "lon": 120.61991,
    "lat": 24.3473,
    "consume": "美食"
  },
  {
    "Name": "台灣第一味-大甲鎮瀾店",
    "Add": "臺中市437大甲區鎮瀾街155號",
    "Tel": "886-4-26886225",
    "Opentime": "9:00-22:00",
    "lon": 120.6239,
    "lat": 24.34556,
    "consume": "美食"
  },
  {
    "Name": "喫茶小舖-蔣公店",
    "Add": "臺中市437大甲區蔣公路155號",
    "Tel": "886-4-26868102",
    "Opentime": "詳見官網或電話洽詢",
    "lon": 120.62169,
    "lat": 24.34624,
    "consume": "drink"
  },
  {
    "Name": "DIDI DOMO複合式餐廳",
    "Add": "臺中市423東勢區中山路34號",
    "Tel": "886-4-25770828",
    "Opentime": "11:00-23:00",
    "lon": 120.83033,
    "lat": 24.25733,
    "consume": "美食"
  },
  {
    "Name": "風味園餐廳",
    "Add": "臺中市423東勢區中山路42號",
    "Tel": "886-4-25879188",
    "Opentime": "11:00-14:00  17:00-20:00",
    "lon": 120.83024,
    "lat": 24.25737,
    "consume": "美食"
  },
  {
    "Name": "東香咖啡",
    "Add": "臺中市423東勢區東蘭路26-2號",
    "Tel": "886-4-25870002",
    "Opentime": "詳見官網或電話洽詢",
    "lon": 120.82685,
    "lat": 24.26272,
    "consume": "cafe"
  },
  {
    "Name": "林記水餃館",
    "Add": "臺中市423東勢區中山路50號",
    "Tel": "886-4-25889186",
    "Opentime": "詳見官網或電話洽詢",
    "lon": 120.83006,
    "lat": 24.25732,
    "consume": "美食"
  },
  {
    "Name": "阿木大眾餐廳",
    "Add": "臺中市423東勢區中山路69號",
    "Tel": "886-4-25873235",
    "Opentime": "AM 11:00 ─ PM 2:00，PM 05:00 ─ PM 8:00",
    "lon": 120.82928,
    "lat": 24.25695,
    "consume": "美食"
  },
  {
    "Name": "喬巴咖啡",
    "Add": "臺中市423東勢區第三橫街124號",
    "Tel": "886-4-25870228",
    "Opentime": "週一: 10:30 - 21:00 週二: 10:30 - 17:30 週三-週五: 10:30 - 21:00 週六: 10:00 - 21:00 週日: 10:00 - 17:30",
    "lon": 120.83044,
    "lat": 24.25584,
    "consume": "cafe"
  },
  {
    "Name": "台中一中店goûter雅培米堤法式烘焙",
    "Add": "臺中市404北區錦新街83號",
    "Tel": "886-4-22252358",
    "Opentime": "11 :00 ~ 9 : 30",
    "lon": 120.68495,
    "lat": 24.15355,
    "consume": "snack"
  },
  {
    "Name": "東風雅舍",
    "Add": "臺中市403西區五權西三街101號",
    "Tel": "886-4-22318998",
    "Opentime": "12:00-21:30",
    "lon": 120.66316,
    "lat": 24.13509,
    "consume": "美食"
  },
  {
    "Name": "堅果鑽堅果專賣店",
    "Add": "臺中市420豐原區豐東路321號",
    "Tel": "886-4-25122122",
    "Opentime": "週一~週六9:30-20:30 週日公休",
    "lon": 120.73365,
    "lat": 24.25229,
    "consume": "美食"
  },
  {
    "Name": "隱し藏-向上店",
    "Add": "臺中市403西區向上路一段 24號",
    "Tel": "886-4-23019811",
    "Opentime": "11:00-22:00 (平日休14:00-17:00) (假日休15:00-17:00)",
    "lon": 120.66734,
    "lat": 24.14685,
    "consume": "美食"
  },
  {
    "Name": "SUGAR & SPICE 糖村旗鑑店",
    "Add": "臺中市407西屯區文心路三段357號",
    "Tel": "886-4-22935558",
    "Opentime": "上午10:00~晚上22:00",
    "lon": 120.66615,
    "lat": 24.17321,
    "consume": "snack"
  },
  {
    "Name": "SUAGR & SPICE 糖村崇德店",
    "Add": "臺中市406北屯區崇德路二段125號",
    "Tel": "886-4-22426066",
    "Opentime": "上午10:00~晚上22:00",
    "lon": 120.68532,
    "lat": 24.17267,
    "consume": "snack"
  },
  {
    "Name": "SUAGR & SPICE 糖村福雅店",
    "Add": "臺中市407西屯區福雅路103號",
    "Tel": "886-4-24611998",
    "Opentime": "上午10:00~晚上22:00",
    "lon": 120.61921,
    "lat": 24.1856,
    "consume": "snack"
  },
  {
    "Name": "SUGAR & SPICE 糖村向上店",
    "Add": "臺中市408南屯區向上路一段588號",
    "Tel": "886-4-23205381",
    "Opentime": "上午10:00~晚上22:00",
    "lon": 120.65069,
    "lat": 24.14707,
    "consume": "snack"
  },
  {
    "Name": "57夯肉 （無煙燒烤火鍋吃到飽）",
    "Add": "臺中市435梧棲區大智路二段161號",
    "Tel": "886-4-26577057",
    "Opentime": "週一-週五: 11:30 - 14:30 17:30 - 22:00    週六-週日: 11:00 - 22:00",
    "lon": 120.53853,
    "lat": 24.258,
    "consume": "美食"
  },
  {
    "Name": "櫻花鳥森林",
    "Add": "臺中市426新社區協中街6號",
    "Tel": "886-4-25815662",
    "Opentime": "09:00~18:00",
    "lon": 120.81608,
    "lat": 24.18429,
    "consume": "美食"
  },
  {
    "Name": "元祖實業股份有限公司-台中復興店",
    "Add": "臺中市402南區復興路三段533號",
    "Tel": "886-4-22252563",
    "Opentime": "週日至週四10:00-21:00， 週五至週六10:00-21:30",
    "lon": 120.68268,
    "lat": 24.13452,
    "consume": "美食"
  },
  {
    "Name": "東勢林場",
    "Add": "臺中市423東勢區勢林街6-1號",
    "Tel": "886-4-25872191",
    "Opentime": "6:30~22:00",
    "lon": 120.8723,
    "lat": 24.28118,
    "consume": "美食"
  },
  {
    "Name": "FRajo 法爵雪酪烘焙坊",
    "Add": "臺中市400中區柳川里興中街17號",
    "Tel": "886-4-22221766",
    "Opentime": "1000-17:00",
    "lon": 120.6781,
    "lat": 24.14299,
    "consume": "snack"
  },
  {
    "Name": "歐客佬咖啡",
    "Add": "臺中市404北區崇德路一段517號",
    "Tel": "886-4-22350979",
    "Opentime": "詳見官網或電話洽詢",
    "lon": 120.68486,
    "lat": 24.16497,
    "consume": "cafe"
  },
  {
    "Name": "菇神",
    "Add": "臺中市426新社區協成里協中街287號",
    "Tel": "886-4-25822585",
    "Opentime": "詳見官網或電話洽詢",
    "lon": 120.79931,
    "lat": 24.20068,
    "consume": "美食"
  },
  {
    "Name": "FRajo 法爵雪酪冰淇淋　國光門市",
    "Add": "臺中市401東區新民街88號",
    "Tel": "886-4-22183396",
    "Opentime": "10:30-22:00",
    "lon": 120.68795,
    "lat": 24.13838,
    "consume": "snack"
  },
  {
    "Name": "FRajo法爵天然雪酪烘焙坊 青海門市",
    "Add": "臺中市407西屯區青海路二段207-18好號",
    "Tel": "886-4-27086500",
    "Opentime": "10:30-22:30",
    "lon": 120.64511,
    "lat": 24.17019,
    "consume": "snack"
  },
  {
    "Name": "伊藤麵包工房",
    "Add": "臺中市427潭子區中山路一段101巷8號",
    "Tel": "886-4-25357373",
    "Opentime": "週一~週五 10:00 - 18:30",
    "lon": 120.70195,
    "lat": 24.19342,
    "consume": "snack"
  },
  {
    "Name": "東喜堂",
    "Add": "臺中市427潭子區雅潭路三段東寶巷9號",
    "Tel": "886-4-25314368",
    "Opentime": "11:00–22:00",
    "lon": 120.68257,
    "lat": 24.21766,
    "consume": "美食"
  },
  {
    "Name": "三風麵館",
    "Add": "臺中市428大雅區民富街114號",
    "Tel": "886-4-25665158",
    "Opentime": "週一至週五，0830~1200，1300~1700，國定假日休息",
    "lon": 120.66667,
    "lat": 24.23299,
    "consume": "美食"
  },
  {
    "Name": "熱火美式牛排．Heat Steak．",
    "Add": "臺中市428大雅區民生路一段101號",
    "Tel": "886-4-25687316",
    "Opentime": "11:30 - 15:30 、 17:00 - 22:00 (每週二休息)",
    "lon": 120.6486,
    "lat": 24.22682,
    "consume": "美食"
  },
  {
    "Name": "布達佩斯冰淇淋",
    "Add": "臺中市428大雅區學府路390號",
    "Tel": "886-4-25606839",
    "Opentime": "11:00–21:00 (週一公休)",
    "lon": 120.6482,
    "lat": 24.22686,
    "consume": "snack"
  },
  {
    "Name": "帝一食補碳燒薑母鴨",
    "Add": "臺中市428大雅區中清東路78號",
    "Tel": "886-4-25688542",
    "Opentime": "03:00–02:00",
    "lon": 120.64844,
    "lat": 24.22114,
    "consume": "美食"
  },
  {
    "Name": "石全石美石鍋專賣店",
    "Add": "臺中市427潭子區興華一路303號",
    "Tel": "886-4-25333012",
    "Opentime": "11:00–14:00, 17:00–21:00",
    "lon": 120.70349,
    "lat": 24.21082,
    "consume": "美食"
  },
  {
    "Name": "餃先生風味麵館",
    "Add": "臺中市427潭子區復興路一段111號",
    "Tel": "886-4-25370616",
    "Opentime": "11:00–14:00, 17:00–20:30 (週一公休)",
    "lon": 120.70638,
    "lat": 24.20476,
    "consume": "美食"
  },
  {
    "Name": "四月南風　卡斯提拉",
    "Add": "臺中市407西屯區福科路366號",
    "Tel": "886-4-23589887",
    "Opentime": "AM10:00~PM7:00",
    "lon": 120.63748,
    "lat": 24.16679,
    "consume": "美食"
  },
  {
    "Name": "新天地東區-瀚熙軒",
    "Add": "臺中市401東區旱溪東路一段456號二樓",
    "Tel": "886-4-22136222",
    "Opentime": "11:30 - 14:00 、 17:00 - 21:30",
    "lon": 120.70152,
    "lat": 24.14182,
    "consume": "美食"
  },
  {
    "Name": "空海拉麵(日本道地傳統)",
    "Add": "臺中市407西屯區大隆路140號",
    "Tel": "886-4-23102595",
    "Opentime": "週一~週五(12:00~21:30)、六日、假日(11:00~22:00)",
    "lon": 120.64866,
    "lat": 24.15822,
    "consume": "美食"
  },
  {
    "Name": "DK9大坑九號",
    "Add": "臺中市406北屯區橫坑巷47-9號",
    "Tel": "886-4-24392729",
    "Opentime": "AM:11:00-PM17:00 晚上時間採預約制",
    "lon": 120.7451,
    "lat": 24.17808,
    "consume": "美食"
  },
  {
    "Name": "三元花園餐廳有限公司",
    "Add": "臺中市407西屯區臺灣大道四段1962號",
    "Tel": "886-4-23594066",
    "Opentime": "11:30~14:30   17:30~21:00",
    "lon": 120.604,
    "lat": 24.18423,
    "consume": "美食"
  },
  {
    "Name": "貓爪子咖啡 Cat's Claw Brunch & Cafe'",
    "Add": "臺中市404北區大德街131號",
    "Tel": "886-4-22025268",
    "Opentime": "週一公休",
    "lon": 120.6783,
    "lat": 24.16549,
    "consume": "cafe"
  },
  {
    "Name": "地芋添糖包心粉圓專賣",
    "Add": "臺中市406北屯區旅順路二段143號",
    "Tel": "886-4-22258753",
    "Opentime": "12:00~22:00",
    "lon": 120.68978,
    "lat": 24.17425,
    "consume": "美食"
  },
  {
    "Name": "逢甲歡樂星",
    "Add": "臺中市407西屯區文華路71號",
    "Tel": "886-4-27066899",
    "Opentime": "15:00~00:00",
    "lon": 120.64647,
    "lat": 24.17752,
    "consume": "美食"
  },
  {
    "Name": "大花朵朵主題餐廳(大花朵朵整合行銷有限公司)",
    "Add": "臺中市404北區學士路98號",
    "Tel": "886-4-22334660",
    "Opentime": "詳見官網或電話洽詢",
    "lon": 120.68276,
    "lat": 24.1553,
    "consume": "美食"
  },
  {
    "Name": "森林小徑親子友善寵物餐廳",
    "Add": "臺中市406北屯區文心路四段131號",
    "Tel": "886-4-22982238",
    "Opentime": "10:30-21:00，週四公休",
    "lon": 120.67545,
    "lat": 24.17383,
    "consume": "美食"
  },
  {
    "Name": "森活，系(森活文創有限公司)",
    "Add": "臺中市407西屯區精誠路50巷35號",
    "Tel": "886-4-23273125",
    "Opentime": "9:30-20:30，每週三公休",
    "lon": 120.65516,
    "lat": 24.1569,
    "consume": "美食"
  },
  {
    "Name": "貓老闆咖啡",
    "Add": "臺中市412大里區大里路109號",
    "Tel": "886-4-24851983",
    "Opentime": "11:00-14:00、17:00-21:00，每週三公休",
    "lon": 120.6859,
    "lat": 24.10334,
    "consume": "cafe"
  },
  {
    "Name": "安妮廚房",
    "Add": "臺中市412大里區大里路107號",
    "Tel": "886-4-24860787",
    "Opentime": "11:00 - 14:00 、 17:00 - 20:30，每週二公休",
    "lon": 120.68585,
    "lat": 24.10337,
    "consume": "美食"
  },
  {
    "Name": "水某茶館",
    "Add": "臺中市401東區三賢街2號",
    "Tel": "886-4-22135122",
    "Opentime": "8:00-24:00",
    "lon": 120.7061,
    "lat": 24.13735,
    "consume": "drink"
  },
  {
    "Name": "咖啡葉烘焙坊",
    "Add": "臺中市420豐原區西安街95-5號",
    "Tel": "886-4-25222005",
    "Opentime": "12:00-22:00",
    "lon": 120.71209,
    "lat": 24.249,
    "consume": "cafe"
  },
  {
    "Name": "順咖啡(順順咖啡)",
    "Add": "臺中市400中區市府路107巷1-2號",
    "Tel": "886-4-22217157",
    "Opentime": "12:00-19:00，每週二公休",
    "lon": 120.68158,
    "lat": 24.14137,
    "consume": "cafe"
  },
  {
    "Name": "函館和風火鍋店",
    "Add": "臺中市407西屯區福科路591號",
    "Tel": "886-4-24612669",
    "Opentime": "11:00-14:00、17:00-21:00",
    "lon": 120.61354,
    "lat": 24.18659,
    "consume": "美食"
  },
  {
    "Name": "Gray House灰房子義式餐廳(食恬義式餐廚)",
    "Add": "臺中市404北區三民路三段201巷30號",
    "Tel": "886-4-22200039",
    "Opentime": "11:00 - 21:30",
    "lon": 120.68477,
    "lat": 24.15357,
    "consume": "美食"
  },
  {
    "Name": "小熊屋中友店(豐鼎興業有限公司)",
    "Add": "臺中市404北區三民路三段201巷29號",
    "Tel": "886-4-22251557",
    "Opentime": "11:00-21:00",
    "lon": 120.68462,
    "lat": 24.15342,
    "consume": "美食"
  },
  {
    "Name": "樂湜餐廳",
    "Add": "臺中市402南區工學北路376號",
    "Tel": "886-4-22631303",
    "Opentime": "7:30-16:00",
    "lon": 120.65616,
    "lat": 24.11528,
    "consume": "美食"
  },
  {
    "Name": "灰鴿/鍋(禾憶美食館)",
    "Add": "臺中市408南屯區永春東七路968-3號",
    "Tel": "886-4-22587111",
    "Opentime": "11:00-14:30、17:00-23:00",
    "lon": 120.63355,
    "lat": 24.15176,
    "consume": "美食"
  },
  {
    "Name": "台中亞培米堤法式烘焙(馬丁尼食品有限公司)",
    "Add": "臺中市404北區錦新街83號",
    "Tel": "886-4-22252358",
    "Opentime": "11:00-23:30",
    "lon": 120.68495,
    "lat": 24.15355,
    "consume": "snack"
  },
  {
    "Name": "幸福好食咖啡Homecafe",
    "Add": "臺中市404北區興進路58號",
    "Tel": "886-4-22337229",
    "Opentime": "11:00-21:00 每週一、週二公休",
    "lon": 120.69748,
    "lat": 24.15574,
    "consume": "cafe"
  },
  {
    "Name": "野菜共合國",
    "Add": "臺中市403西區博館路111號",
    "Tel": "886-4-23280558",
    "Opentime": "11:00-15:00 17:00-21:00 每週一公休",
    "lon": 120.66535,
    "lat": 24.15621,
    "consume": "美食"
  },
  {
    "Name": "一桶tone韓式新食(富帝美食館)",
    "Add": "臺中市407西屯區西屯路三段166-60號",
    "Tel": "886-4-24619090",
    "Opentime": "11:00-14:00 17:00-24:00",
    "lon": 120.61328,
    "lat": 24.19018,
    "consume": "美食"
  },
  {
    "Name": "灰鴿/鍋(尚豪美食館)",
    "Add": "臺中市407西屯區西屯路三段166-72號",
    "Tel": "886-4-24611833",
    "Opentime": "11:00-14:30 17:00-24:00",
    "lon": 120.61281,
    "lat": 24.19036,
    "consume": "美食"
  },
  {
    "Name": "剛好冰菓室(剛好企業有限公司)",
    "Add": "臺中市406北屯區昌平路一段31號",
    "Tel": "886-4-22514612",
    "Opentime": "12:00-22:00",
    "lon": 120.69357,
    "lat": 24.16678,
    "consume": "drink"
  },
  {
    "Name": "味無味生活美學飲食空間",
    "Add": "臺中市400中區中山路249號",
    "Tel": "886-4-22233869",
    "Opentime": "10am-8pm (周四店休)",
    "lon": 120.67785,
    "lat": 24.14219,
    "consume": "美食"
  },
  {
    "Name": "小惡魔雪莉貝爾彩繪冰棒,蛋糕店",
    "Add": "臺中市400中區民族路68號",
    "Tel": "886-9-89213537",
    "Opentime": "週二～週日 10:00~18:00 (建議預約）",
    "lon": 120.68022,
    "lat": 24.13925,
    "consume": "snack"
  },
  {
    "Name": "TC Time Walk 台中時空漫步",
    "Add": "臺中市403西區中山路69號2樓",
    "Tel": "886-9-39086896",
    "Opentime": "星期一到星期日 10:00AM - 22:00PM",
    "lon": 120.68196,
    "lat": 24.13883,
    "consume": "美食"
  },
  {
    "Name": "陳允寶泉-自由總店",
    "Add": "臺中市400中區自由路2段36號",
    "Tel": "886-4-22222257",
    "Opentime": "09:00~21:30",
    "lon": 120.67561,
    "lat": 24.13537,
    "consume": "美食"
  },
  {
    "Name": "騷包 SaoBao Bar&Kitchen",
    "Add": "臺中市400中區民族路202號",
    "Tel": "886-4-22266866",
    "Opentime": "週三~週一  17:00-01:00",
    "lon": 120.67572,
    "lat": 24.14311,
    "consume": "美食"
  },
  {
    "Name": "繼光工務所",
    "Add": "臺中市400中區繼光街55-1號",
    "Tel": "886-4-22220152",
    "Opentime": "10:00-19:00",
    "lon": 120.68173,
    "lat": 24.13842,
    "consume": "美食"
  },
  {
    "Name": "路德威餐館",
    "Add": "臺中市403西區公益路36號",
    "Tel": "886-4-23288686",
    "Opentime": "Pm:16:00~am:1200",
    "lon": 120.66831,
    "lat": 24.15099,
    "consume": "美食"
  },
  {
    "Name": "黝脈咖啡",
    "Add": "臺中市400中區成功路253號",
    "Tel": "886-4-22289111",
    "Opentime": "24小時(凌晨2:00至上午7:00為預約制時段)",
    "lon": 120.67962,
    "lat": 24.14349,
    "consume": "cafe"
  },
  {
    "Name": "一福堂老店",
    "Add": "臺中市400中區臺中市中區中山路67號",
    "Tel": "886-4-22222643",
    "Opentime": "9:00-22:00",
    "lon": 120.6823,
    "lat": 24.13868,
    "consume": "美食"
  },
  {
    "Name": "樹合苑",
    "Add": "臺中市404北區中清路一段101號",
    "Tel": "886-9-75817250",
    "Opentime": "周一周二休息 開放時間 10:00-18:00；團體預約時間可彈性",
    "lon": 120.6768,
    "lat": 24.15542,
    "consume": "美食"
  },
  {
    "Name": "喜豐香x審計368  漢式喜餅  喜餅推薦 台中伴手禮",
    "Add": "臺中市403西區五權西四街七巷15號",
    "Tel": "886-4-23025009",
    "Opentime": "AM 11:00 ~ PM 19:00",
    "lon": 120.66184,
    "lat": 24.13949,
    "consume": "gift"
  },
  {
    "Name": "法雅花園冰品甜點",
    "Add": "臺中市407西屯區文心路三段357號",
    "Tel": "886-4-22915669",
    "Opentime": "10:00-22:00",
    "lon": 120.66636,
    "lat": 24.17321,
    "consume": "美食"
  },
  {
    "Name": "TSUTAYA BOOKSTORE 台中市政店",
    "Add": "臺中市407西屯區市政北二路18之1號2F&3F",
    "Tel": "886-4-22533636",
    "Opentime": "11:00-22:00",
    "lon": 120.64286,
    "lat": 24.16046,
    "consume": "美食"
  },
  {
    "Name": "無藏茗茶",
    "Add": "臺中市414烏日區高鐵一路299號2樓",
    "Tel": "886-4-23380302",
    "Opentime": "周一至周五，09:00-18:00",
    "lon": 120.60878,
    "lat": 24.11152,
    "consume": "美食"
  },
  {
    "Name": "冒煙的喬美式墨西哥餐廳",
    "Add": "臺中市403西區梅川西路一段7號",
    "Tel": "886-4-23753990",
    "Opentime": "11:00 - 22:00",
    "lon": 120.66671,
    "lat": 24.14161,
    "consume": "美食"
  },
  {
    "Name": "舊振南餅店",
    "Add": "臺中市407西屯區臺灣大道三段301號B2 (臺中新光三越百貨B2)",
    "Tel": "886-4-22513403",
    "Opentime": "週一至週五：11:00~22:00    週六至週日：10:30~22:00",
    "lon": 120.64371,
    "lat": 24.16526,
    "consume": "gift"
  },
  {
    "Name": "五南文化廣場",
    "Add": "臺中市400中區中山路6號",
    "Tel": "886-4-22260330",
    "Opentime": "早上10點到晚上10點",
    "lon": 120.68391,
    "lat": 24.13766,
    "consume": "美食"
  },
  {
    "Name": "樹太老日本定食-公益創始店",
    "Add": "臺中市408南屯區公益路二段136-1號",
    "Tel": "886-4-23206618",
    "Opentime": "週一至週五 / 11:30-21:00 最後收客時間20:30，週六日、例假日 / 11:00-21:30 最後收客時間21:00",
    "lon": 120.64834,
    "lat": 24.15101,
    "consume": "美食"
  },
  {
    "Name": "樹太老日本定食-大墩十九店",
    "Add": "臺中市407西屯區大墩十九街237號",
    "Tel": "886-4-23109522",
    "Opentime": "週一至週五 / 11:30-21:00 最後收客時間20:30，週六日、例假日 / 11:00-21:30 最後收客時間21:00",
    "lon": 120.64986,
    "lat": 24.15923,
    "consume": "美食"
  },
  {
    "Name": "樹太老日本定食-台中復興愛買店",
    "Add": "臺中市402南區復興路一段359號",
    "Tel": "886-4-22652511",
    "Opentime": "週一至週五 / 11:00-21:00 最後收客時間20:30，週六日、例假日 / 11:00-21:30 最後收客時間21:00",
    "lon": 120.65434,
    "lat": 24.1147,
    "consume": "美食"
  },
  {
    "Name": "樹太老日本定食-台中東山店",
    "Add": "臺中市406北屯區東山路一段380之12號",
    "Tel": "886-4-24351192",
    "Opentime": "週一至週五 / 11:30-21:00 最後收客時間20:30，週六日、例假日 / 11:00-21:30 最後收客時間21:00",
    "lon": 120.73165,
    "lat": 24.17698,
    "consume": "美食"
  },
  {
    "Name": "安妮公主花園",
    "Add": "臺中市426新社區中興街223號",
    "Tel": "886-4-25931567",
    "Opentime": "週一至週日，09:30-20:00",
    "lon": 120.82515,
    "lat": 24.16807,
    "consume": "美食"
  },
  {
    "Name": "樹太老日本定食-台中文心店",
    "Add": "臺中市406北屯區文心路四段813號",
    "Tel": "886-4-22412211",
    "Opentime": "週一至週五 / 11:30-21:00 最後收客時間20:30，週六日、例假日 / 11:00-21:30 最後收客時間21:00",
    "lon": 120.69153,
    "lat": 24.17168,
    "consume": "美食"
  },
  {
    "Name": "哈里歐咖啡蔬食館",
    "Add": "臺中市403西區精誠22街33號1F",
    "Tel": "886-4-23234609",
    "Opentime": "09:30-21:00",
    "lon": 120.65671,
    "lat": 24.14733,
    "consume": "cafe"
  },
  {
    "Name": "樹太老日本定食-台中青海店",
    "Add": "臺中市407西屯區青海路二段207-18號 號B1",
    "Tel": "886-4-27078366",
    "Opentime": "週一至週五 / 11:30-21:30 最後收客時間21:00，週六日、例假日 / 11:00-21:30 最後收客時間21:00",
    "lon": 120.64507,
    "lat": 24.17024,
    "consume": "美食"
  },
  {
    "Name": "樹太老日本定食-台中大里店",
    "Add": "臺中市412大里區德芳南路487號",
    "Tel": "886-4-24861488",
    "Opentime": "週一至週五 / 11:30-21:00 最後收客時間20:30，週六日、例假日 / 11:00-21:30 最後收客時間21:00",
    "lon": 120.68192,
    "lat": 24.1045,
    "consume": "美食"
  },
  {
    "Name": "議蘆會館",
    "Add": "臺中市413霧峰區中正路734號",
    "Tel": "886-4-23310868",
    "Opentime": "週一至週日，08:00-21:00",
    "lon": 120.69786,
    "lat": 24.05696,
    "consume": "美食"
  },
  {
    "Name": "一膳炭造料理鰻魚專賣店 (市政店)",
    "Add": "臺中市407西屯區市政路567號1F",
    "Tel": "886-4-22583280",
    "Opentime": "週一至週五11:30~14:30、17:30~22:00；假日11:30~22:00。",
    "lon": 120.63501,
    "lat": 24.16059,
    "consume": "美食"
  },
  {
    "Name": "北澤壽喜燒-公益店",
    "Add": "臺中市408南屯區公益路二段136號",
    "Tel": "886-4-23209922",
    "Opentime": "週一至週五 / 11:30-22:00 最後收客時間21:00，週六日、例假日 / 11:00-22:30 最後收客時間21:30",
    "lon": 120.64849,
    "lat": 24.15104,
    "consume": "美食"
  },
  {
    "Name": "益家人養生堅果",
    "Add": "臺中市406北屯區崇德二路二段270號",
    "Tel": "886-4-22491998",
    "Opentime": "平日9:30~17:30  Monday to Friday 8:30AM-5:30PM",
    "lon": 120.6833,
    "lat": 24.17788,
    "consume": "gift"
  },
  {
    "Name": "北澤壽喜燒-大里店",
    "Add": "臺中市412大里區德芳南路470號",
    "Tel": "886-4-24821129",
    "Opentime": "週一至週五 / 11:30-22:00 最後收客時間21:00，週六日、例假日 / 11:00-22:30 最後收客時間21:30",
    "lon": 120.68314,
    "lat": 24.10463,
    "consume": "美食"
  },
  {
    "Name": "EliubiS愛留彼此霜淇淋體驗店",
    "Add": "臺中市408南屯區文心路一段480號",
    "Tel": "886-4-23200440",
    "Opentime": "平日上午12:30至晚上19:30，假日上午11:30至20:30",
    "lon": 120.64693,
    "lat": 24.15192,
    "consume": "snack"
  },
  {
    "Name": "布佬廚房 - 台中新都店",
    "Add": "臺中市406北屯區和祥路一段121號",
    "Tel": "886-4-24368866",
    "Opentime": "週一至週五 / 11:30-21:30 最後收客時間20:30，週六日、例假日 / 11:00-21:30 最後收客時間20:30",
    "lon": 120.72676,
    "lat": 24.17337,
    "consume": "美食"
  },
  {
    "Name": "李安妮向日葵農場（採預約制）",
    "Add": "臺中市437大甲區如意路27巷1-1號",
    "Tel": "886-4-26811196",
    "Opentime": "9：30~17：00（採預約制）",
    "lon": 120.61741,
    "lat": 24.41889,
    "consume": "美食"
  },
  {
    "Name": "許院",
    "Add": "臺中市406北屯區文昌三街 2 號",
    "Tel": "886-4-22377882",
    "Opentime": "Sun. ~ Sat. / 11:00~20:00",
    "lon": 120.68654,
    "lat": 24.17129,
    "consume": "美食"
  },
  {
    "Name": "樹太老日本定食-台中水湳愛買店",
    "Add": "臺中市407西屯區中清路二段1199號水湳愛買B1",
    "Tel": "886-4-24250899",
    "Opentime": "週一至週五 / 11:30-21:00 最後收客時間20:30，週六日、例假日 / 11:00-21:30 最後收客時間21:00",
    "lon": 120.65951,
    "lat": 24.19258,
    "consume": "美食"
  },
  {
    "Name": "鐵道之鄉酒莊",
    "Add": "臺中市420豐原區朴子街260巷2弄32號",
    "Tel": "886-4-25123393",
    "Opentime": "星期日: 09:30 – 18:00 星期一: 09:30 – 18:00 星期二: 09:30 – 18:00 星期三: 09:30 – 18:00 星期四: 09:30 – 18:00 星期五: 09:30 – 18:00 星期六: 09:30 – 18:00",
    "lon": 120.74568,
    "lat": 24.27857,
    "consume": "美食"
  },
  {
    "Name": "北回木瓜牛奶-逢甲總店",
    "Add": "臺中市407西屯區文華路9-10號",
    "Tel": "886-4-24526663",
    "Opentime": "15:30-00:00",
    "lon": 120.64529,
    "lat": 24.17585,
    "consume": "drink"
  },
  {
    "Name": "先拼鮮pinfresh",
    "Add": "臺中市407西屯區文心路三段183號",
    "Tel": "886-4-23150565",
    "Opentime": "週一到週五，早上8點到下午7點",
    "lon": 120.65972,
    "lat": 24.17143,
    "consume": "美食"
  },
  {
    "Name": "陳石城",
    "Add": "臺中市433沙鹿區中正街56號",
    "Tel": "886-4-26621140",
    "Opentime": "每周一~日 8:10~21:10 (國定假日可能更改營業時間)",
    "lon": 120.55912,
    "lat": 24.23666,
    "consume": "美食"
  },
  {
    "Name": "Hione World 海灣樂世界",
    "Add": "臺中市406北屯區東山路二段151-2號",
    "Tel": "886-4-22399520",
    "Opentime": "平日-10:15~18:15；假日-10:15~21:15",
    "lon": 120.76337,
    "lat": 24.1989,
    "consume": "美食"
  },
  {
    "Name": "段純貞-廣三Sogo",
    "Add": "臺中市400中區臺灣大道二段459號14樓",
    "Tel": "886-4-23225557",
    "Opentime": "11:00~21:00",
    "lon": 120.66189,
    "lat": 24.15547,
    "consume": "美食"
  },
  {
    "Name": "【曾响號】台灣小吃 古早味美食 雞湯 養生燉湯 傳統滷味",
    "Add": "臺中市402南區樹義路61號",
    "Tel": "886-4-22606691",
    "Opentime": "11：00 - 14：00、16：30 - 19：30",
    "lon": 120.65268,
    "lat": 24.11002,
    "consume": "美食"
  },
  {
    "Name": "三喜蛋餅",
    "Add": "臺中市404北區太平路58號",
    "Tel": "886-9-12546989",
    "Opentime": "早上5:30~下午1:30",
    "lon": 120.68311,
    "lat": 24.14852,
    "consume": "美食"
  },
  {
    "Name": "沁園春",
    "Add": "臺中市400中區臺灣大道一段129號",
    "Tel": "886-4-22200735",
    "Opentime": "11:00-14:00 (最後點餐13:40) / 17:00-21:00 (最後點餐20:40)",
    "lon": 120.68266,
    "lat": 24.13952,
    "consume": "美食"
  },
  {
    "Name": "裕珍馨/大遠百專櫃",
    "Add": "臺中市407西屯區臺灣大道三段251號B2",
    "Tel": "886-4-22547805",
    "Opentime": "週一至週五 11:00-22:00 週六至週日 10:30-22:00",
    "lon": 120.64475,
    "lat": 24.16447,
    "consume": "美食"
  },
  {
    "Name": "匠師的故鄉-美景農場",
    "Add": "臺中市400中區臺中市大甲區建興里如意路27巷13號",
    "Tel": "886-9-55997788",
    "Opentime": "10：00～16：00",
    "lon": 120.61155,
    "lat": 24.41795,
    "consume": "美食"
  },
  {
    "Name": "綠野鮮藍帶無花果",
    "Add": "臺中市429神岡區中興路29號",
    "Tel": "886-9-32665388",
    "Opentime": "09:00–17:30",
    "lon": 120.69074,
    "lat": 24.24107,
    "consume": "美食"
  },
  {
    "Name": "浮世三千",
    "Add": "臺中市426新社區龍安23-2號",
    "Tel": "886-4-25931536",
    "Opentime": "營業時間:週三~日 中午11:30-14:30 & 晚上17:00-21:00 周一&周二公休",
    "lon": 120.83545,
    "lat": 24.17042,
    "consume": "美食"
  },
  {
    "Name": "唐太盅養生燉品甜湯 台中公益店",
    "Add": "臺中市403西區臺灣大道二段161號",
    "Tel": "886-4-23282329",
    "Opentime": "周一至周日11:30-21:00",
    "lon": 120.66877,
    "lat": 24.15145,
    "consume": "snack"
  },
  {
    "Name": "唐太盅養生燉品甜湯 台中中科店",
    "Add": "臺中市407西屯區永福路172號",
    "Tel": "886-4-24615222",
    "Opentime": "周一至周日 11:30-21:00",
    "lon": 120.62165,
    "lat": 24.18566,
    "consume": "美食"
  },
  {
    "Name": "唐太盅養生燉品甜湯 台中大里店",
    "Add": "臺中市412大里區國光路二段551號",
    "Tel": "886-4-24066582",
    "Opentime": "周一至周日 11:30-21:00",
    "lon": 120.67878,
    "lat": 24.11212,
    "consume": "美食"
  },
  {
    "Name": "奧兒法低GI輕食餐 台中公益店",
    "Add": "臺中市403西區臺灣大道二段163號",
    "Tel": "886-4-23282252",
    "Opentime": "周一至周日 11:30-19:00",
    "lon": 120.66871,
    "lat": 24.15117,
    "consume": "美食"
  },
  {
    "Name": "奧兒法低GI輕食餐 台中漢口店",
    "Add": "臺中市404北區漢口路四段367號B1",
    "Tel": "886-4-22363552",
    "Opentime": "周一至周日 11:30-19:00",
    "lon": 120.68287,
    "lat": 24.16721,
    "consume": "美食"
  },
  {
    "Name": "奧兒法低GI輕食餐 台中五權店",
    "Add": "臺中市404北區五權路576號",
    "Tel": "886-4-22295552",
    "Opentime": "周一至周日 11:30-19:00",
    "lon": 120.68481,
    "lat": 24.15399,
    "consume": "美食"
  },
  {
    "Name": "奧兒法低GI輕食餐 台中福科店",
    "Add": "臺中市407西屯區福康路89號",
    "Tel": "886-4-24611155",
    "Opentime": "周一至周日 11:30-19:00",
    "lon": 120.6169,
    "lat": 24.18494,
    "consume": "美食"
  },
  {
    "Name": "奧兒法低GI輕食餐 台中英才店",
    "Add": "臺中市403西區臺灣大道二段239號B1",
    "Tel": "886-4-2325 5252",
    "Opentime": "周一至周日 11:30-19:00",
    "lon": 120.66694,
    "lat": 24.15274,
    "consume": "美食"
  },
  {
    "Name": "隱鍋 台中公益店",
    "Add": "臺中市403西區公益路288號",
    "Tel": "886-4-23268885",
    "Opentime": "周一至周日11:30-24:00",
    "lon": 120.65352,
    "lat": 24.15107,
    "consume": "美食"
  },
  {
    "Name": "阿知焢肉 台中黎明店",
    "Add": "臺中市407西屯區黎明路三段22號",
    "Tel": "886-4-24510123",
    "Opentime": "周一至周日 24小時不停歇",
    "lon": 120.63708,
    "lat": 24.1716,
    "consume": "美食"
  }
]